{
   "type": "FeatureCollection",
   "features": [
  {
    "type": "Feature",
    "geometry": {
       "type": "Point",
       "coordinates":  [ 121.5422587,25.0401715 ]
    },
    "properties": {
    "機構":"台灣食物銀行",
    "地址":"台北市大安區忠孝東路三段248巷19弄36號",
    "電話":"02 275 15345",
    "行政區":"大安區"
    }
  },
  {
    "type": "Feature",
    "geometry": {
       "type": "Point",
       "coordinates":  [ 121.505071,25.0296623 ]
    },
    "properties": {
    "機構":"臻佶祥南機場幸福食物銀行",
    "地址":"台北市中正區中華路二段301巷12號1樓",
    "電話":"02 2332 9974",
    "行政區":"中正區"
    }
  },
  {
    "type": "Feature",
    "geometry": {
       "type": "Point",
       "coordinates":  [ 121.5609664,24.9871851 ]
    },
    "properties": {
    "機構":"台北忠信食物銀行",
    "地址":"台北市文山區興隆路四段107巷1號",
    "電話":"02 2936 3199",
    "行政區":"文山區"
    }
  },
  {
    "type": "Feature",
    "geometry": {
       "type": "Point",
       "coordinates":  [ 121.5173378,25.0757686 ]
    },
    "properties": {
    "機構":"新漾食愛銀行",
    "地址":"台北市大同區敦煌路86號",
    "電話":"02 2585 1208",
    "行政區":"大同區"
    }
  },
  {
    "type": "Feature",
    "geometry": {
       "type": "Point",
       "coordinates":  [ 121.5278886,25.0429628 ]
    },
    "properties": {
    "機構":"惜食中途島",
    "地址":"台北市中正區杭州南路一段11巷12-2號",
    "電話":"02 2301 6163",
    "行政區":"中正區"
    }
  },
  {
    "type": "Feature",
    "geometry": {
       "type": "Point",
       "coordinates":  [ 121.5600343,25.0172035 ]
    },
    "properties": {
    "機構":"臻佶祥共享園區-台北麟光站",
    "地址":"台北市信義區和平東路三段",
    "電話":"02 8732 8814",
    "行政區":"信義區"
    }
  },
  {
    "type": "Feature",
    "geometry": {
       "type": "Point",
       "coordinates":  [ 121.4980939,25.0366735 ]
    },
    "properties": {
    "機構":"台北仁濟院食物銀行",
    "地址":"台北市萬華區廣州街200號",
    "電話":"02 7752 7333",
    "行政區":"萬華區"
    }
  }
]
}